[
  {
    "id": 1,
    "name": "Shraddha Kapoor",
    "category": "Singer",
    "location": "Mumbai, Maharashtra",
    "city": "Mumbai",
    "state": "Maharashtra",
    "priceMin": 15000,
    "priceMax": 25000,
    "rating": 4.9,
    "reviews": 127,
    "image": "/images/artists/shraddha-kapoor.png",
    "languages": ["English", "Hindi"],
    "bio": "Versatile vocalist and performer with expertise in Bollywood, classical, and contemporary music styles.",
    "verified": true
  },
  {
    "id": 2,
    "name": "Prabhas",
    "category": "DJ",
    "location": "Bangalore, Karnataka",
    "city": "Bangalore",
    "state": "Karnataka",
    "priceMin": 20000,
    "priceMax": 35000,
    "rating": 4.8,
    "reviews": 89,
    "image": "/images/artists/Prabhas.png",
    "languages": ["English", "Hindi"],
    "bio": "Electronic music specialist with expertise in house, techno, and wedding entertainment.",
    "verified": true
  },
  {
    "id": 3,
    "name": "Kajal Agarwal",
    "category": "Dancer",
    "location": "Delhi, Delhi",
    "city": "Delhi",
    "state": "Delhi",
    "priceMin": 12000,
    "priceMax": 20000,
    "rating": 5.0,
    "reviews": 156,
    "image": "images/artists/Kajal-Agarwal.png",
    "languages": ["English", "Hindi", "Spanish"],
    "bio": "Contemporary and Latin dance performer with international competition experience.",
    "verified": true
  },
  {
    "id": 4,
    "name": "Shahrukh khan ",
    "category": "Speaker",
    "location": "Pune, Maharashtra",
    "city": "Pune",
    "state": "Maharashtra",
    "priceMin": 25000,
    "priceMax": 50000,
    "rating": 4.7,
    "reviews": 73,
    "image": "images/artists/Shahrukh-Khan.png",
    "languages": ["English"],
    "bio": "Motivational speaker and business consultant with Fortune 500 company experience.",
    "verified": true
  },
  {
    "id": 5,
    "name": "Shreya goshal",
    "category": "Singer",
    "location": "Chennai, Tamil Nadu",
    "city": "Chennai",
    "state": "Tamil Nadu",
    "priceMin": 18000,
    "priceMax": 30000,
    "rating": 4.9,
    "reviews": 94,
    "image": "images/artists/Shreya-Ghosal.png",
    "languages": ["English", "Tamil"],
    "bio": "Indie folk singer-songwriter with multiple album releases and festival performances.",
    "verified": true
  },
  {
    "id": 6,
    "name": "Ram Charan",
    "category": "DJ",
    "location": "Goa, Goa",
    "city": "Goa",
    "state": "Goa",
    "priceMin": 15000,
    "priceMax": 25000,
    "rating": 4.6,
    "reviews": 112,
    "image": "images/artists/Ramcharan.png",
    "languages": ["English", "Hindi"],
    "bio": "Wedding and event DJ specializing in Latin, pop, and electronic music.",
    "verified": true
  },
  {
    "id": 7,
    "name": "Hrithik Roshan",
    "category": "Dancer",
    "location": "Hyderabad, Telangana",
    "city": "Hyderabad",
    "state": "Telangana",
    "priceMin": 20000,
    "priceMax": 32000,
    "rating": 4.8,
    "reviews": 68,
    "image": "images/artists/Hrithik-Roshan.png",
    "languages": ["English", "Telugu"],
    "bio": "Ballet and modern dance instructor with international dance background.",
    "verified": true
  },
  {
    "id": 8,
    "name": "Rajshamani",
    "category": "Speaker",
    "location": "Kolkata, West Bengal",
    "city": "Kolkata",
    "state": "West Bengal",
    "priceMin": 30000,
    "priceMax": 60000,
    "rating": 4.9,
    "reviews": 45,
    "image": "images/artists/Rajshamani.png",
    "languages": ["English", "Bengali"],
    "bio": "Technology keynote speaker and startup founder with 15+ years in tech industry.",
    "verified": true
  },
  {
    "id": 9,
    "name": "Devi sri prasad",
    "category": "Singer",
    "location": "Jaipur, Rajasthan",
    "city": "Jaipur",
    "state": "Rajasthan",
    "priceMin": 14000,
    "priceMax": 22000,
    "rating": 4.7,
    "reviews": 83,
    "image": "images/artists/DSP.png",
    "languages": ["English", "Hindi"],
    "bio": "Folk and classical singer with traditional Rajasthani music expertise.",
    "verified": false
  },
  {
    "id": 10,
    "name": "Hanumankind",
    "category": "DJ",
    "location": "Ahmedabad, Gujarat",
    "city": "Ahmedabad",
    "state": "Gujarat",
    "priceMin": 18000,
    "priceMax": 28000,
    "rating": 4.8,
    "reviews": 91,
    "image": "images/artists/Hanumankind.png",
    "languages": ["English", "Gujarati"],
    "bio": "Hip-hop and R&B DJ with club and private event experience across Gujarat.",
    "verified": true
  }
]
